{
	"shop":[
	{"name":"배스킨라빈스", "lat":"37.5445206377279", "lng":"126.96803050233919" },
	{"name":"달볶이", "lat":"37.54512123656426", "lng":"126.96565034335397" },
	{"name":"몬스터플레이스", "lat":"37.54415758175414", "lng":"126.9668116296275" },
	{"name":"청파맨션", "lat":"37.545639788398454", "lng":"126.96711009939952" },
    {"name":"한입소반", "lat":"37.54404963455052", "lng":"126.97030295483853 "}
	]
}